City_ID,City,Lat,Lng,Max Temp,Humidity,Cloudiness,Wind Speed,Country,Date
0,busselton,-33.65,115.33,61.0,95,14,21.74,AU,1594860348
1,ca mau,9.18,105.15,82.49,81,74,3.31,VN,1594860759
2,barauna,-5.08,-37.62,72.88,74,24,10.11,BR,1594860819
3,carnarvon,-24.87,113.63,69.8,56,90,9.17,AU,1594860367
4,new norfolk,-42.78,147.06,46.99,87,97,0.69,AU,1594860372
5,thompson,55.74,-97.86,62.6,93,75,10.29,CA,1594860126
6,esperance,-33.87,121.9,50.0,76,0,14.99,AU,1594860385
7,iqaluit,63.75,-68.51,62.6,36,20,3.36,CA,1594860382
8,nome,64.5,-165.41,51.8,81,90,8.05,US,1594860820
9,touros,-5.2,-35.46,75.2,94,40,4.7,BR,1594860377
10,atuona,-9.8,-139.03,79.34,76,1,16.96,PF,1594860353
11,punta arenas,-53.15,-70.92,33.8,86,1,4.7,CL,1594860343
12,ushuaia,-54.8,-68.3,28.4,86,0,10.29,AR,1594860348
13,los llanos de aridane,28.66,-17.92,71.6,73,75,13.87,ES,1594860820
14,butaritari,3.07,172.79,82.58,75,100,12.95,KI,1594860349
15,cape town,-33.93,18.42,43.0,87,0,1.12,ZA,1594860134
16,puerto ayora,-0.74,-90.35,68.0,87,87,5.99,EC,1594860341
17,lloydminster,53.28,-110.0,68.0,64,40,13.87,CA,1594860821
18,hilo,19.73,-155.09,84.2,62,20,9.17,US,1594860362
19,east london,-33.02,27.91,54.36,46,0,5.32,ZA,1594860344
20,iracoubo,5.48,-53.2,77.85,85,0,8.75,GF,1594860822
21,vaini,-21.2,-175.2,77.0,78,75,10.29,TO,1594860343
22,kitimat,54.05,-128.65,57.99,95,100,1.01,CA,1594860822
23,qaqortoq,60.72,-46.03,51.8,66,3,4.7,GL,1594860822
24,rikitea,-23.12,-134.97,74.37,85,100,9.08,PF,1594860349
25,itarema,-2.92,-39.92,76.89,81,6,12.75,BR,1594860417
26,tiksi,71.69,128.87,37.27,85,58,21.25,RU,1594860352
27,souillac,-20.52,57.52,68.0,88,75,11.41,MU,1594860352
28,kumbo,6.2,10.67,59.56,97,100,2.66,CM,1594860823
29,smolyaninovo,43.3,132.47,68.0,77,90,6.71,RU,1594860823
30,kapaa,22.08,-159.32,82.4,69,20,11.41,US,1594860344
31,khatanga,71.97,102.5,54.64,77,100,9.91,RU,1594860360
32,bredasdorp,-34.53,20.04,35.6,93,10,3.36,ZA,1594860385
33,dikson,73.51,80.55,40.19,96,100,4.99,RU,1594860359
34,port lincoln,-34.73,135.87,57.76,69,0,7.49,AU,1594860824
35,bengkulu,-3.8,102.27,79.9,76,68,3.74,ID,1594860385
36,georgetown,5.41,100.34,80.6,100,20,2.24,MY,1594860380
37,miragoane,18.44,-73.09,81.64,78,100,3.62,HT,1594860824
38,hermanus,-34.42,19.23,44.01,84,25,6.08,ZA,1594860351
39,kapit,2.02,112.93,78.13,86,88,0.43,MY,1594860824
40,airai,-8.93,125.41,66.6,71,55,5.17,TL,1594860357
41,kaka,37.35,59.61,84.18,39,91,9.8,TM,1594860824
42,fairbanks,64.84,-147.72,73.99,35,40,13.87,US,1594860540
43,albany,42.6,-73.97,79.0,62,40,3.4,US,1594860303
44,altamont,42.21,-121.74,91.0,11,1,6.93,US,1594860825
45,longyearbyen,78.22,15.64,44.6,81,75,2.24,SJ,1594860374
46,seoul,37.57,126.98,77.0,61,1,2.55,KR,1594860714
47,port alfred,-33.59,26.89,53.04,43,47,5.7,ZA,1594860358
48,abatskoye,56.29,70.46,68.13,78,0,5.82,RU,1594860825
49,constitucion,-35.33,-72.42,52.5,85,22,7.65,CL,1594860122
50,kodiak,57.79,-152.41,69.8,52,20,5.82,US,1594860364
51,hammerfest,70.66,23.68,53.6,87,78,5.82,NO,1594860826
52,vila velha,-20.33,-40.29,69.01,94,90,9.17,BR,1594860374
53,asosa,10.07,34.53,61.63,100,100,4.07,ET,1594860826
54,guerrero negro,27.98,-114.06,72.82,65,15,20.83,MX,1594860311
55,urumqi,43.8,87.6,78.8,36,58,4.47,CN,1594860812
56,rio grande,-32.03,-52.1,46.11,64,0,5.79,BR,1594860156
57,henties bay,-22.12,14.28,73.0,16,0,4.0,NA,1594860826
58,maniitsoq,65.42,-52.9,44.37,77,100,13.53,GL,1594860406
59,musoma,-1.5,33.8,70.7,66,100,6.62,TZ,1594860827
60,tuatapere,-46.13,167.68,42.44,71,34,3.22,NZ,1594860383
61,havelock,34.88,-76.9,82.0,82,0,7.43,US,1594860827
62,saint-augustin,51.23,-58.65,52.0,74,0,4.76,CA,1594860827
63,chapais,49.78,-74.85,69.8,56,90,8.05,CA,1594860827
64,port keats,-14.25,129.55,77.11,29,0,9.75,AU,1594860827
65,victoria,22.29,114.16,90.0,70,58,13.0,HK,1594860182
66,kirkcudbright,54.84,-4.05,57.99,88,83,3.0,GB,1594860827
67,port blair,11.67,92.75,80.04,83,100,11.12,IN,1594860827
68,codrington,-38.27,141.97,50.86,77,0,5.19,AU,1594860378
69,ixtapa,20.7,-105.2,87.01,74,90,6.93,MX,1594860828
70,buchanan,5.88,-10.05,73.71,77,100,7.47,LR,1594860412
71,saint george,37.1,-113.58,104.0,10,1,14.99,US,1594860116
72,barrow,71.29,-156.79,44.6,75,1,9.17,US,1594860362
73,ambilobe,-13.2,49.05,67.64,86,56,2.26,MG,1594860828
74,chuy,-33.7,-53.46,41.49,74,0,3.91,UY,1594860358
75,pitea,65.32,21.48,57.2,82,7,2.15,SE,1594860618
76,hobart,-42.88,147.33,48.0,81,75,5.82,AU,1594860331
77,aasiaat,68.71,-52.87,39.85,91,8,6.35,GL,1594860829
78,pretoria,-25.74,28.19,39.2,38,0,8.05,ZA,1594860829
79,bluff,-46.6,168.33,44.89,76,21,12.53,NZ,1594860359
80,kavaratti,10.57,72.64,82.81,78,100,20.65,IN,1594860344
81,preobrazhenka,47.57,35.82,63.0,76,0,2.24,UA,1594860829
82,buraydah,26.33,43.98,95.0,21,0,14.99,SA,1594860692
83,mandera,3.94,41.87,77.49,56,100,16.58,KE,1594860830
84,tongliao,43.61,122.27,91.8,34,0,13.06,CN,1594860830
85,morondava,-20.28,44.28,68.92,67,0,18.43,MG,1594860830
86,morro bay,35.37,-120.85,72.0,80,21,8.99,US,1594860678
87,pozo colorado,-23.49,-58.8,60.69,73,0,5.46,PY,1594860830
88,cabo san lucas,22.89,-109.91,93.2,49,5,11.41,MX,1594860369
89,najran,17.49,44.13,87.8,29,40,9.17,SA,1594860603
90,estreito,-5.78,-43.25,76.17,50,100,1.01,BR,1594860566
91,jamestown,42.1,-79.24,78.8,47,1,4.7,US,1594860312
92,ostrovnoy,68.05,39.51,51.37,75,0,9.66,RU,1594860347
93,padang,-0.95,100.35,81.23,67,28,4.23,ID,1594860831
94,tahta,26.77,31.5,77.47,56,0,9.42,EG,1594860379
95,chingirlau,51.09,54.08,77.13,31,40,7.96,KZ,1594860831
96,lata,40.16,-8.33,73.99,73,0,3.62,PT,1594860405
97,port elizabeth,-33.92,25.57,42.8,87,1,4.7,ZA,1594860380
98,quelimane,-17.88,36.89,71.6,68,75,13.87,MZ,1594860421
99,nazca,-14.83,-74.95,62.38,61,0,2.39,PE,1594860831
100,high prairie,55.43,-116.49,66.11,71,100,7.47,CA,1594860832
101,baijiantan,45.63,85.18,85.53,23,2,1.25,CN,1594860832
102,baglung,28.27,83.59,72.82,77,42,1.21,NP,1594860832
103,kenora,49.82,-94.43,66.2,72,75,5.82,CA,1594860832
104,pisco,-13.7,-76.22,60.8,87,90,5.82,PE,1594860361
105,chokurdakh,70.63,147.92,37.67,91,100,12.59,RU,1594860354
106,mar del plata,-38.0,-57.56,46.99,80,0,6.93,AR,1594860346
107,san patricio,19.22,-104.7,86.0,74,75,23.04,MX,1594860354
108,mankera,31.39,71.44,99.03,30,0,8.25,PK,1594860833
109,matagami,49.75,-77.63,68.0,82,90,11.41,CA,1594860634
110,muscat,23.61,58.59,85.41,73,47,1.7,OM,1594860803
111,mataura,-46.19,168.86,44.24,75,30,3.06,NZ,1594860341
112,provideniya,64.38,-173.3,50.0,81,90,11.18,RU,1594860348
113,lorengau,-2.02,147.27,85.03,63,0,6.62,PG,1594860385
114,qaanaaq,77.48,-69.36,41.7,84,100,3.76,GL,1594860346
115,pevek,69.7,170.31,45.18,87,100,2.04,RU,1594860341
116,saint-pierre,-21.34,55.48,66.2,63,22,5.82,RE,1594860407
117,pascagoula,30.37,-88.56,75.2,94,20,3.36,US,1594860834
118,yellowknife,62.46,-114.35,64.0,63,75,14.99,CA,1594860118
119,bang phae,13.69,99.93,79.0,83,78,5.32,TH,1594860834
120,poum,-20.23,164.02,70.84,60,0,13.09,NC,1594860404
121,charkhi dadri,28.6,76.27,91.02,49,0,9.24,IN,1594860834
122,saskylakh,71.92,114.08,64.81,40,95,19.64,RU,1594860364
123,arraial do cabo,-22.97,-42.03,67.53,73,98,9.78,BR,1594860356
124,fayaoue,-20.65,166.53,71.64,76,0,11.39,NC,1594860835
125,nabire,-3.37,135.48,85.75,64,13,2.1,ID,1594860409
126,bartica,6.4,-58.62,78.8,94,20,4.7,GY,1594860835
127,goderich,43.75,-81.72,78.01,89,99,1.01,CA,1594860356
128,sitka,57.05,-135.33,62.6,77,90,5.82,US,1594860134
129,kulhudhuffushi,6.62,73.07,83.62,79,100,13.58,MV,1594860835
130,kavieng,-2.57,150.8,84.69,65,7,3.83,PG,1594860354
131,avarua,-21.21,-159.78,75.2,57,95,6.93,CK,1594860353
132,rafraf,37.19,10.18,73.4,83,20,6.93,TN,1594860836
133,qitaihe,45.8,130.85,80.69,67,0,2.17,CN,1594860836
134,bradulet,45.28,24.77,59.14,66,100,2.77,RO,1594860836
135,camacha,33.08,-16.33,68.0,72,75,10.29,PT,1594860836
136,brae,60.4,-1.35,53.6,93,83,5.82,GB,1594860366
137,tuktoyaktuk,69.45,-133.04,59.0,58,75,9.17,CA,1594860367
138,honiara,-9.43,159.95,82.4,78,75,9.17,SB,1594860837
139,yaguajay,22.33,-79.24,81.0,82,0,9.82,CU,1594860837
140,castro,-24.79,-50.01,49.66,93,0,6.67,BR,1594860148
141,nizwa,22.93,57.53,87.19,42,35,0.22,OM,1594860837
142,warrnambool,-38.38,142.48,45.0,95,0,3.0,AU,1594860416
143,cherskiy,68.75,161.3,49.23,55,100,4.9,RU,1594860374
144,soyo,-6.13,12.37,71.15,90,56,4.94,AO,1594860363
145,norman wells,65.28,-126.83,77.0,38,75,8.05,CA,1594860347
146,kruisfontein,-34.0,24.73,43.14,60,81,4.09,ZA,1594860346
147,aykhal,66.0,111.5,62.6,77,90,8.95,RU,1594860390
148,corinto,37.94,22.96,73.0,57,0,3.0,GR,1594860838
149,akyab,20.15,92.9,81.52,85,32,7.94,MM,1594860838
150,humaita,-7.51,-63.02,76.1,60,0,1.48,BR,1594860397
151,marystown,47.17,-55.15,51.75,90,100,20.2,CA,1594860838
152,tasiilaq,65.61,-37.64,42.8,81,0,4.7,GL,1594860347
153,obo,5.4,26.49,66.22,96,83,0.76,CF,1594860839
154,lakewood,39.7,-105.08,78.01,54,87,1.99,US,1594860709
155,bardiyah,31.76,25.09,73.45,73,0,14.67,LY,1594860839
156,anadyr,64.75,177.48,57.2,82,20,15.66,RU,1594860371
157,chancay,-11.57,-77.27,59.0,87,90,11.41,PE,1594860839
158,rosarito,32.33,-117.03,75.0,68,5,19.46,MX,1594860839
159,hede,33.77,120.25,76.59,68,0,2.48,CN,1594860379
160,pareora,-44.49,171.21,45.0,97,0,6.2,NZ,1594860840
161,belmonte,-15.86,-38.88,73.4,83,40,2.24,BR,1594860840
162,kendari,-3.94,122.5,79.25,82,32,3.47,ID,1594860840
163,simbahan,6.3,120.58,83.73,69,84,6.44,PH,1594860840
164,yulara,-25.24,130.99,50.0,39,0,5.82,AU,1594860365
165,barinitas,8.76,-70.41,71.11,82,100,3.89,VE,1594860840
166,zaza del medio,22.0,-79.37,78.87,86,0,8.59,CU,1594860840
167,lahij,13.17,44.58,86.4,50,100,2.42,YE,1594860840
168,mingaora,34.78,72.36,75.45,61,22,4.05,PK,1594860841
169,yerbogachen,61.28,108.01,57.85,71,99,12.15,RU,1594860351
170,saint-philippe,-21.36,55.77,69.8,63,37,5.82,RE,1594860354
171,clyde river,70.47,-68.59,62.6,45,1,13.87,CA,1594860841
172,hithadhoo,-0.6,73.08,83.77,72,100,4.94,MV,1594860370
173,ketchikan,55.34,-131.65,57.2,100,90,17.22,US,1594860369
174,lompoc,34.64,-120.46,66.2,68,4,14.99,US,1594860370
175,korem,12.51,39.52,59.58,74,100,1.81,ET,1594860841
176,baherden,38.44,57.43,82.47,49,3,11.03,TM,1594860842
177,eureka,40.8,-124.16,69.01,18,0,4.0,US,1594860842
178,faanui,-16.48,-151.75,78.3,85,10,15.57,PF,1594860355
179,dese,11.13,39.63,55.42,89,100,3.11,ET,1594860842
180,upernavik,72.79,-56.15,42.39,90,49,1.32,GL,1594860345
181,grants,35.15,-107.85,77.0,25,1,17.22,US,1594860842
182,la maddalena,41.21,9.41,73.4,73,26,9.17,IT,1594860842
183,nanortalik,60.14,-45.24,42.51,88,10,7.92,GL,1594860341
184,adrar,20.5,-10.07,92.17,22,0,14.14,MR,1594860843
185,itacare,-14.28,-39.0,71.65,84,6,8.59,BR,1594860843
186,northam,51.03,-4.22,62.01,95,89,1.99,GB,1594860418
187,caucasia,7.99,-75.19,77.88,91,75,4.94,CO,1594860843
188,nelson bay,-32.72,152.15,57.2,58,75,17.22,AU,1594860843
189,dole,47.08,5.5,62.6,93,90,4.7,FR,1594860844
190,jalu,29.03,21.55,77.13,41,0,9.26,LY,1594860844
191,evensk,61.95,159.23,50.59,95,100,3.13,RU,1594860844
192,luang prabang,19.89,102.13,77.0,94,40,1.34,LA,1594860844
193,saldanha,-33.01,17.94,46.4,70,0,2.24,ZA,1594860844
194,mahajanga,-15.72,46.32,68.0,94,11,3.36,MG,1594860844
195,geraldton,-28.77,114.6,60.8,82,90,8.05,AU,1594860344
196,birjand,32.87,59.22,75.2,36,0,4.7,IR,1594860650
197,vestmanna,62.16,-7.17,51.8,100,100,9.17,FO,1594860845
198,tibati,6.47,12.63,64.49,96,92,1.36,CM,1594860845
199,longyan,25.11,117.02,86.59,60,11,4.74,CN,1594860845
200,vanimo,-2.67,141.3,85.91,63,9,5.68,PG,1594860845
201,cefalu,38.04,14.02,71.01,85,0,1.99,IT,1594860845
202,asyut,27.18,31.18,80.6,57,0,11.41,EG,1594860664
203,lebu,-37.62,-73.65,51.48,91,100,3.76,CL,1594860365
204,podosinovets,60.28,47.07,61.65,97,32,4.45,RU,1594860845
205,sampit,-2.53,112.95,77.68,88,87,2.66,ID,1594860846
206,oksfjord,70.24,22.35,57.2,71,29,9.17,NO,1594860846
207,ulcinj,41.93,19.22,69.8,52,30,2.24,ME,1594860846
208,bethel,41.37,-73.41,72.0,73,1,6.93,US,1594860355
209,coquimbo,-29.95,-71.34,53.6,76,90,3.36,CL,1594860217
210,lethem,3.38,-59.8,77.11,82,68,4.12,GY,1594860369
211,madimba,-10.4,40.33,67.53,75,0,18.3,TZ,1594860374
212,waipawa,-41.41,175.52,48.99,65,100,4.0,NZ,1594860847
213,aklavik,68.22,-135.01,64.4,55,75,4.7,CA,1594860127
214,atar,20.52,-13.05,91.56,20,0,7.16,MR,1594860847
215,healdsburg,38.61,-122.87,75.99,53,1,11.41,US,1594860847
216,yinchuan,38.47,106.27,81.27,39,98,7.31,CN,1594860847
217,nikolskoye,59.7,30.79,59.0,72,20,8.95,RU,1594860381
218,hastings,50.86,0.57,60.8,87,88,4.7,GB,1594860427
219,thinadhoo,0.53,72.93,84.25,66,100,3.13,MV,1594860848
220,hamilton,39.18,-84.53,86.0,58,1,3.36,US,1594860848
221,meulaboh,4.14,96.13,79.09,86,62,4.14,ID,1594860848
222,kamskiye polyany,55.43,51.42,68.0,72,58,4.47,RU,1594860848
223,mount isa,-20.73,139.5,66.2,24,0,13.87,AU,1594860848
224,pontes e lacerda,-15.23,-59.34,75.47,52,0,2.26,BR,1594860849
225,torbay,47.67,-52.73,50.0,100,90,13.87,CA,1594860400
226,dunedin,-45.87,170.5,46.0,67,9,15.01,NZ,1594860282
227,coos bay,43.37,-124.22,81.0,82,75,26.4,US,1594860726
228,sao filipe,14.9,-24.5,75.22,87,61,6.17,CV,1594860382
229,piquete,-22.61,-45.18,61.05,84,98,3.11,BR,1594860849
230,novaya igirma,57.13,103.91,58.23,53,79,9.6,RU,1594860849
231,maputo,-25.97,32.59,55.4,62,0,8.05,MZ,1594860849
232,lauro muller,-28.39,-49.4,44.38,83,0,1.68,BR,1594860850
233,vestmannaeyjar,63.44,-20.27,53.04,93,100,21.97,IS,1594860384
234,ponta delgada,37.73,-25.67,68.0,68,75,10.29,PT,1594860850
235,muisne,0.6,-80.03,74.75,86,100,7.31,EC,1594860850
236,limbuhan,11.88,124.05,83.32,75,99,11.92,PH,1594860850
237,dingle,11.0,122.67,82.06,81,93,8.08,PH,1594860850
238,vertou,47.17,-1.47,61.0,93,31,3.36,FR,1594860851
239,san alberto,7.76,-73.39,77.56,74,34,6.2,CO,1594860851
240,crotone,39.09,17.12,76.37,57,50,4.36,IT,1594860851
241,karatuzskoye,53.61,92.87,58.1,70,0,2.08,RU,1594860851
242,srednekolymsk,67.45,153.68,48.18,58,100,7.67,RU,1594860851
243,bougouni,11.42,-7.48,75.74,80,100,7.18,ML,1594860851
244,benguela,-12.58,13.41,66.13,81,0,3.02,AO,1594860852
245,egvekinot,66.32,-179.17,51.49,82,67,5.26,RU,1594860852
246,axim,4.87,-2.24,73.94,85,100,8.37,GH,1594860388
247,nizhniy kuranakh,58.84,125.49,78.49,50,0,5.46,RU,1594860852
248,ribeira grande,38.52,-28.7,69.42,81,100,3.83,PT,1594860353
249,cidreira,-30.18,-50.21,49.71,66,0,6.53,BR,1594860352
250,pierre,44.37,-100.35,84.99,37,1,4.7,US,1594860813
251,old saybrook,41.29,-72.38,70.0,88,20,9.57,US,1594860646
252,la paz,-16.5,-68.15,41.0,25,0,3.36,BO,1594860744
253,maningrida,-12.07,134.27,79.68,40,8,13.56,AU,1594860853
254,gravdal,68.12,13.5,54.91,83,100,1.72,NO,1594860415
255,balabac,7.99,117.06,85.05,68,98,6.73,PH,1594860853
256,vanderhoof,54.02,-124.02,60.78,85,100,2.06,CA,1594860757
257,berck,50.4,1.6,62.6,88,90,5.82,FR,1594860853
258,vila franca do campo,37.72,-25.43,68.0,68,75,10.29,PT,1594860394
259,luderitz,-26.65,15.16,73.4,12,0,23.04,NA,1594860372
260,west bay,19.37,-81.42,86.0,84,20,9.17,KY,1594860854
261,alofi,-19.06,-169.92,78.8,65,75,13.87,NU,1594860395
262,deputatskiy,69.3,139.9,40.64,70,99,9.17,RU,1594860854
263,san andres,12.58,-81.7,84.2,83,75,6.93,CO,1594860354
264,kushalgarh,23.2,74.45,78.33,88,100,8.72,IN,1594860854
265,la ronge,55.1,-105.28,66.2,63,75,17.22,CA,1594860430
266,carutapera,-1.2,-46.02,75.81,90,0,6.49,BR,1594860407
267,antofagasta,-23.65,-70.4,53.6,87,20,4.7,CL,1594860603
268,yaan,7.38,8.57,71.74,97,100,7.9,NG,1594860855
269,general pico,-35.66,-63.76,45.14,62,0,10.09,AR,1594860855
270,naryan-mar,67.67,53.09,45.16,86,0,6.58,RU,1594860855
271,petropavlovsk-kamchatskiy,53.05,158.65,59.0,87,90,8.95,RU,1594860855
272,eskil,38.4,33.41,72.21,51,0,10.51,TR,1594860855
273,mao,39.89,4.27,71.6,73,0,8.05,ES,1594860855
274,isla mujeres,21.23,-86.73,86.0,79,75,4.7,MX,1594860856
275,bandarbeyla,9.49,50.81,82.36,60,1,27.58,SO,1594860856
276,yar-sale,66.83,70.83,48.67,70,5,20.65,RU,1594860413
277,banyo,6.75,11.82,63.45,93,81,2.08,CM,1594860856
278,bend,44.06,-121.32,86.0,19,0,1.99,US,1594860793
279,tivaouane,14.95,-16.81,77.0,78,20,4.7,SN,1594860856
280,bulawayo,-20.15,28.58,43.21,88,25,16.49,ZW,1594860857
281,tapa,59.26,25.96,57.2,82,100,5.82,EE,1594860857
282,puerto escondido,15.85,-97.07,84.2,74,75,1.95,MX,1594860346
283,koidu,8.42,-10.83,68.99,96,95,2.48,SL,1594860857
284,mahebourg,-20.41,57.7,68.0,88,75,11.41,MU,1594860358
285,horsham,51.06,-0.33,60.8,87,75,5.82,GB,1594860857
286,kutahya,39.42,29.98,59.0,93,9,8.05,TR,1594860857
287,baracoa,20.35,-74.5,80.94,78,58,8.55,CU,1594860858
288,ostersund,63.18,14.64,55.4,93,95,5.82,SE,1594860858
289,baiyin,36.56,104.21,75.0,82,90,2.24,CN,1594860858
290,tautira,-17.73,-149.15,78.8,83,75,8.05,PF,1594860404
291,port hardy,50.7,-127.42,71.6,73,75,11.41,CA,1594860858
292,bilma,18.69,12.92,86.59,33,0,9.95,NE,1594860416
293,jumla,29.27,82.18,64.4,66,49,0.58,NP,1594860374
294,luganville,-15.53,167.17,80.6,69,20,2.24,VU,1594860859
295,maragogi,-9.01,-35.22,74.91,80,0,7.7,BR,1594860859
296,mancio lima,-7.61,-72.9,73.44,89,0,0.36,BR,1594860859
297,chimbote,-9.09,-78.58,61.52,88,76,8.9,PE,1594860859
298,san jose,37.34,-121.89,84.99,47,75,13.87,US,1594860324
299,freeport,40.66,-73.58,73.4,69,40,11.41,US,1594860370
300,mikuni,36.22,136.15,73.4,83,75,4.7,JP,1594860860
301,leshukonskoye,64.9,45.76,47.05,81,100,8.16,RU,1594860860
302,cockburn town,21.46,-71.14,81.68,81,100,16.02,TC,1594860216
303,kampot,10.62,104.18,84.2,79,20,3.36,KH,1594860860
304,bambous virieux,-20.34,57.76,68.0,88,75,11.41,MU,1594860386
305,kannur,11.87,75.36,75.2,94,75,3.36,IN,1594860861
306,palmer,42.16,-72.33,75.2,64,75,6.93,US,1594860414
307,mutoko,-17.4,32.23,49.91,84,57,5.06,ZW,1594860861
308,bograd,54.23,90.83,59.0,72,81,6.71,RU,1594860861
309,pemberton,50.32,-122.8,77.0,47,40,4.7,CA,1594860861
310,eydhafushi,5.1,73.07,83.98,77,100,12.06,MV,1594860861
311,krasnyy kurgan,43.94,42.61,69.8,73,29,2.24,RU,1594860862
312,mweka,-4.85,21.57,70.05,76,100,0.22,CD,1594860862
313,gurupi,-11.73,-49.07,74.62,37,0,4.36,BR,1594860862
314,banda aceh,5.56,95.32,80.94,78,70,4.32,ID,1594860378
315,north bay,46.32,-79.47,75.0,78,75,9.17,CA,1594860862
316,mogzon,51.74,111.96,63.48,86,100,10.2,RU,1594860862
317,martapura,-3.42,114.85,77.0,100,97,2.24,ID,1594860863
318,bandundu,-3.32,17.37,75.88,75,61,2.68,CD,1594860863
319,kez,57.9,53.72,70.36,91,89,0.78,RU,1594860863
320,kidal,18.44,1.41,81.7,55,37,7.11,ML,1594860863
321,inhambane,-23.86,35.38,62.53,72,21,12.75,MZ,1594860390
322,khani,41.96,42.96,71.6,94,75,2.24,GE,1594860402
323,mandalgovi,45.76,106.27,65.48,58,97,21.41,MN,1594860408
324,nieuw amsterdam,5.88,-55.08,78.8,83,1,4.7,SR,1594860864
325,iguatu,-6.36,-39.3,78.04,52,97,2.33,BR,1594860864
326,severo-kurilsk,50.68,156.12,53.94,86,92,6.85,RU,1594860384
327,sao felix do xingu,-6.64,-51.99,77.95,50,55,2.24,BR,1594860864
328,arlit,18.74,7.39,92.26,14,0,7.87,NE,1594860864
329,fortuna,40.6,-124.16,62.6,72,1,12.75,US,1594860406
330,ilulissat,69.22,-51.1,46.4,70,69,3.36,GL,1594860408
331,ponta do sol,32.67,-17.1,69.8,68,20,10.29,PT,1594860374
332,gamba,-2.65,10.0,71.33,89,100,1.59,GA,1594860846
333,paramonga,-10.67,-77.83,60.85,87,65,9.1,PE,1594860865
334,gumdag,39.21,54.59,76.59,77,42,9.44,TM,1594860865
335,sterling,39.01,-77.43,86.0,51,40,10.29,US,1594860240
336,acapulco,16.86,-99.89,87.8,74,75,3.36,MX,1594860417
337,vao,-22.67,167.48,69.78,71,37,22.7,NC,1594860866
338,bulzesti,44.53,23.88,64.4,68,100,3.36,RO,1594860866
339,roald,62.58,6.13,53.6,93,37,3.36,NO,1594860357
340,talnakh,69.49,88.4,48.2,93,75,8.95,RU,1594860430
341,dengzhou,37.81,120.75,84.0,65,11,3.78,CN,1594860866
342,tabas,33.6,56.92,86.0,25,14,4.7,IR,1594860866
343,hasaki,35.73,140.83,70.0,88,75,8.05,JP,1594860355
344,tazovskiy,67.47,78.7,49.17,98,100,19.64,RU,1594860866
345,manyana,-23.4,21.72,41.32,59,0,10.92,BW,1594860381
346,slonim,53.09,25.32,54.73,92,0,2.89,BY,1594860867
347,bichura,50.59,107.6,57.11,84,100,8.99,RU,1594860867
348,dryden,49.78,-92.75,71.6,49,75,13.87,CA,1594860867
349,khailar,25.35,78.53,85.5,65,0,5.21,IN,1594860867
350,sungairaya,0.7,108.9,81.3,76,56,4.81,ID,1594860867
351,gimbi,9.17,35.83,56.53,100,97,2.1,ET,1594860868
352,walvis bay,-22.96,14.51,73.0,13,0,24.16,NA,1594860407
353,caravelas,-17.71,-39.25,72.34,83,23,9.78,BR,1594860392
354,jardim,-21.48,-56.14,70.93,70,0,3.09,BR,1594860868
355,san nicolas,18.17,120.6,84.72,70,6,1.5,PH,1594860868
356,prince rupert,54.32,-130.32,57.2,93,90,12.75,CA,1594860405
357,riyadh,24.69,46.72,95.0,17,0,5.82,SA,1594860381
358,qinnan,33.25,119.91,74.53,72,0,4.23,CN,1594860868
359,dabakala,8.37,-4.43,71.31,84,36,7.43,CI,1594860869
360,lasa,46.62,10.7,50.0,100,40,4.7,IT,1594860392
361,ningbo,29.88,121.55,77.0,100,90,2.24,CN,1594860869
362,dzilam gonzalez,21.28,-88.93,80.89,85,0,5.99,MX,1594860869
363,vardo,70.37,31.11,54.45,69,0,10.13,NO,1594860078
364,auki,-8.77,160.7,81.9,67,100,6.53,SB,1594860869
365,belvidere,42.26,-88.84,68.0,92,100,1.99,US,1594860870
366,sabla,12.75,4.71,77.14,81,2,10.27,NG,1594860870
367,ust-ilimsk,58.0,102.66,57.11,59,61,8.66,RU,1594860870
368,red wing,44.56,-92.53,77.0,47,1,3.36,US,1594860804
369,skjervoy,70.03,20.97,53.02,75,82,1.14,NO,1594860870
370,richards bay,-28.78,32.04,54.34,72,15,5.66,ZA,1594860366
371,kahului,20.89,-156.47,87.8,45,40,20.8,US,1594860375
372,conil,44.97,3.72,43.63,100,28,3.8,FR,1594860871
373,tshela,-4.98,12.93,65.84,90,0,2.48,CD,1594860871
374,partizanskoye,55.5,94.39,55.36,74,0,6.89,RU,1594860871
375,california city,35.13,-117.99,99.0,15,1,14.99,US,1594860871
376,kaputa,-8.47,29.66,66.38,47,2,8.86,ZM,1594860871
377,zheleznodorozhnyy,55.75,38.0,60.01,93,90,4.47,RU,1594860872
378,coihaique,-45.58,-72.07,33.8,100,90,2.24,CL,1594860872
379,san quintin,30.48,-115.95,70.72,72,0,17.56,MX,1594860360
380,westport,41.14,-73.36,73.4,73,20,11.41,US,1594860239
381,hirara,24.8,125.28,87.8,74,75,23.04,JP,1594860872
382,sobolevo,54.43,31.9,51.93,89,100,13.49,RU,1594860381
383,ayan,56.45,138.17,58.6,85,100,12.39,RU,1594860372
384,dhidhdhoo,6.88,73.1,84.06,79,100,16.8,MV,1594860873
385,ormara,25.21,64.64,84.13,81,86,8.5,PK,1594860873
386,seydi,39.48,62.91,79.93,20,0,4.76,TM,1594860873
387,timbiqui,2.77,-77.67,76.98,92,100,4.74,CO,1594860873
388,sovetskiy,61.36,63.58,70.83,82,0,6.87,RU,1594860873
389,salalah,17.02,54.09,80.6,94,75,3.36,OM,1594860365
390,sao lourenco do sul,-31.37,-51.98,44.24,61,0,4.03,BR,1594860873
391,nusaybin,37.08,41.22,82.4,26,0,9.17,TR,1594860874
392,ust-maya,60.42,134.53,78.3,43,33,3.38,RU,1594860397
393,haines junction,60.75,-137.51,64.92,42,70,8.77,CA,1594860245
394,tessalit,20.2,1.01,83.23,52,0,12.08,ML,1594860874
395,bilibino,68.05,166.44,51.08,87,100,2.75,RU,1594860874
396,skelleftea,64.75,20.95,48.99,100,2,2.24,SE,1594860874
397,altay,47.87,88.12,71.82,38,0,4.61,CN,1594860875
398,biak,-0.91,122.88,78.6,82,99,5.66,ID,1594860875
399,malacky,48.44,17.02,61.0,100,92,1.01,SK,1594860875
400,tukrah,32.53,20.58,74.16,76,0,6.93,LY,1594860875
401,den helder,52.96,4.76,59.0,93,90,3.36,NL,1594860875
402,kaitangata,-46.28,169.85,46.99,76,39,1.99,NZ,1594860375
403,shirokiy,49.76,129.52,80.38,74,18,7.83,RU,1594860876
404,bosaso,11.28,49.18,90.09,44,57,22.68,SO,1594860876
405,grand gaube,-20.01,57.66,66.99,86,0,5.01,MU,1594860411
406,chernaya kholunitsa,58.85,51.72,67.12,97,31,5.3,RU,1594860876
407,praia,14.92,-23.51,77.0,78,20,6.93,CV,1594860876
408,marawi,8.0,124.29,82.0,74,55,2.35,PH,1594860876
409,severo-yeniseyskiy,60.37,93.04,52.86,67,100,5.23,RU,1594860877
410,beringovskiy,63.05,179.32,57.69,70,0,3.31,RU,1594860413
411,menongue,-14.66,17.69,43.09,53,0,6.31,AO,1594860867
412,pangnirtung,66.15,-65.71,59.81,36,94,2.51,CA,1594860877
413,the pas,53.83,-101.25,69.8,56,90,19.46,CA,1594860877
414,taoudenni,22.68,-3.98,96.28,26,0,13.04,ML,1594860363
415,faya,18.39,42.45,75.2,27,40,4.7,SA,1594860363
416,chifeng,42.27,118.96,85.26,36,87,7.45,CN,1594860878
417,kokologo,12.19,-1.89,71.6,100,100,2.24,BF,1594860878
418,pyapon,16.28,95.68,80.73,82,93,0.85,MM,1594860878
419,imbituba,-28.24,-48.67,48.2,93,20,2.24,BR,1594860670
420,sayyan,15.17,44.32,67.98,50,100,8.88,YE,1594860878
421,dromolaxia,34.88,33.59,80.6,83,0,12.75,CY,1594860878
422,dajal,29.56,70.38,99.77,30,0,5.39,PK,1594860879
423,barabai,-2.58,115.38,75.79,92,100,1.52,ID,1594860879
424,paciran,-6.88,112.38,79.52,81,25,5.79,ID,1594860879
425,igarka,67.47,86.58,47.08,91,100,12.62,RU,1594860879
426,kapuskasing,49.42,-82.43,75.2,60,90,6.93,CA,1594860879
427,sucua,-2.47,-78.17,67.06,80,100,1.95,EC,1594860879
428,gat,31.61,34.76,75.0,71,1,1.01,IL,1594860879
429,matao,-21.6,-48.37,64.98,75,0,8.59,BR,1594860640
430,arenillas,41.35,-2.85,55.99,62,8,3.89,ES,1594860880
431,cervia,44.27,12.34,66.0,93,0,6.93,IT,1594860880
432,sulangan,11.14,123.72,83.37,74,99,13.44,PH,1594860880
433,darnah,32.77,22.64,74.28,75,0,16.04,LY,1594860880
434,ust-nera,64.57,143.2,65.62,43,85,3.06,RU,1594860364
435,nyurba,63.28,118.33,79.7,60,100,4.81,RU,1594860409
436,port macquarie,-31.43,152.92,62.01,59,0,19.46,AU,1594860881
437,ginir,7.13,40.7,55.94,93,100,9.19,ET,1594860881
438,taraz,42.9,71.37,64.4,59,0,8.95,KZ,1594860881
439,grindavik,63.84,-22.43,50.0,100,90,12.75,IS,1594860389
440,svetlogorsk,52.63,29.73,49.55,86,100,6.08,BY,1594860881
441,yarmouth,41.71,-70.23,66.2,72,1,5.82,US,1594860881
442,kilindoni,-7.91,39.67,76.96,76,100,25.08,TZ,1594860882
443,ossora,59.24,163.07,54.12,94,100,2.48,RU,1594860882
444,viedma,-40.81,-63.0,43.3,70,98,7.29,AR,1594860323
445,turukhansk,65.82,87.98,49.71,81,100,11.52,RU,1594860882
446,ahuimanu,21.44,-157.84,84.2,61,20,10.29,US,1594860882
447,rameswaram,9.28,79.3,84.27,72,100,17.87,IN,1594860883
448,cabanas,22.98,-82.92,84.2,79,40,11.41,CU,1594860883
449,salinas,36.68,-121.66,72.0,63,40,14.99,US,1594860349
450,limulunga,-15.1,23.14,53.85,36,0,8.19,ZM,1594860883
451,suclayin,15.76,121.55,87.12,65,49,2.44,PH,1594860883
452,yumen,40.28,97.2,75.25,19,1,7.94,CN,1594860398
453,manoharpur,27.3,75.95,84.2,79,40,6.93,IN,1594860884
454,chivay,-15.64,-71.6,45.81,48,0,5.79,PE,1594860884
455,suez,29.97,32.53,71.8,87,0,10.74,EG,1594860884
456,ascension,30.22,-90.9,82.99,78,100,4.7,US,1594860884
457,bodri,23.17,81.43,78.1,79,0,3.83,IN,1594860884
458,hualmay,-11.1,-77.61,61.03,84,30,10.31,PE,1594860358
459,christchurch,-43.53,172.63,45.0,100,95,7.96,NZ,1594860881
460,teguise,29.06,-13.56,71.6,83,3,13.87,ES,1594860885
461,zrnovci,41.85,22.44,64.99,77,100,2.24,MK,1594860885
462,san pedro,14.35,121.02,87.01,71,45,3.0,PH,1594860393
463,olafsvik,64.89,-23.71,50.56,91,100,20.71,IS,1594860399
464,muhos,64.81,25.99,59.0,82,30,2.24,FI,1594860885
465,mazamari,-11.33,-74.53,72.16,72,100,1.03,PE,1594860885
466,coolum beach,-26.53,153.1,64.99,42,0,5.01,AU,1594860886
467,micheweni,-4.97,39.83,76.12,78,97,15.95,TZ,1594860886
468,dakar,14.69,-17.44,78.8,78,20,5.14,SN,1594860131
469,ancud,-41.87,-73.82,48.99,100,90,6.93,CL,1594860958
470,weiser,44.25,-116.97,91.4,17,1,4.7,US,1594860886
471,llanes,43.42,-4.75,64.0,98,68,1.01,ES,1594860886
472,lamu,-2.27,40.9,76.66,78,51,16.82,KE,1594860886
473,bandraboua,-12.7,45.12,77.0,73,75,29.97,YT,1594860887
474,canberra,-35.28,149.13,50.0,61,75,17.22,AU,1594860597
475,radom,51.4,21.15,62.01,71,100,1.99,PL,1594860887
476,rena,61.13,11.36,45.0,96,0,2.13,NO,1594860887
477,tabou,4.42,-7.35,74.34,78,100,7.36,CI,1594860385
478,kloulklubed,7.04,134.26,84.2,74,75,4.7,PW,1594860407
479,mehamn,71.04,27.85,55.24,72,63,7.2,NO,1594860959
480,kem,64.96,34.58,48.42,88,100,5.73,RU,1594860888
481,sistranda,63.73,8.83,55.4,93,75,2.24,NO,1594860888
482,te anau,-45.42,167.72,39.92,70,90,0.89,NZ,1594860649
483,broken hill,-31.95,141.43,55.4,43,0,4.94,AU,1594860888
484,diplo,24.47,69.58,85.69,71,100,13.94,PK,1594860888
485,mantua,45.17,10.78,66.99,81,0,1.99,IT,1594860888
486,sari,36.56,53.06,73.4,83,40,4.7,IR,1594860889
487,yoichi,43.2,140.77,69.8,77,75,5.82,JP,1594860889
488,puerto del rosario,28.5,-13.86,71.6,83,20,10.29,ES,1594860394
489,long branch,40.3,-73.99,73.0,88,1,10.29,US,1594860622
490,ozernovskiy,51.5,156.52,52.39,89,100,10.98,RU,1594860889
491,marstal,54.86,10.52,57.2,87,6,4.7,DK,1594860889
492,ligayan,4.65,119.47,83.73,73,100,10.87,PH,1594860890
493,kalabo,-14.97,22.68,51.53,39,0,7.23,ZM,1594860391
494,bambanglipuro,-7.95,110.28,79.25,79,70,10.09,ID,1594860890
495,merauke,-8.47,140.33,80.26,78,95,15.68,ID,1594860383
496,necochea,-38.55,-58.74,39.99,81,1,4.0,AR,1594860372
497,byron bay,-28.65,153.62,62.01,48,0,14.99,AU,1594860647
498,rio claro,-22.41,-47.56,59.63,82,0,6.69,BR,1594860890
499,coria,39.99,-6.54,73.89,39,6,6.4,ES,1594860890
500,sydney,-33.87,151.21,57.99,58,75,20.8,AU,1594860651
501,santa ana,33.75,-117.87,82.99,57,20,6.93,US,1594860668
502,saint-francois,46.42,3.91,60.8,77,90,2.24,FR,1594860891
503,nicoya,10.15,-85.45,77.0,100,40,3.36,CR,1594860673
504,ahipara,-35.17,173.17,63.14,84,100,8.12,NZ,1594860421
505,kangaatsiaq,68.31,-53.46,41.92,91,98,6.42,GL,1594860891
506,bathsheba,13.22,-59.52,82.4,74,20,12.75,BB,1594860877
507,whitianga,-36.83,175.7,57.0,96,100,11.99,NZ,1594860891
508,igrim,63.19,64.42,58.69,87,63,8.59,RU,1594860892
509,rabo de peixe,37.8,-25.58,68.0,68,75,10.29,PT,1594860892
510,lavrentiya,65.58,-171.0,48.88,83,95,5.37,RU,1594860962
511,nayoro,44.35,142.46,70.14,68,92,3.27,JP,1594860892
512,hambantota,6.12,81.12,77.0,100,20,4.7,LK,1594860375
513,aden,12.78,45.04,86.52,71,100,7.76,YE,1594860723
514,sioux lookout,50.1,-91.92,73.4,43,75,12.75,CA,1594860333
515,paragominas,-2.97,-47.48,75.78,73,34,4.52,BR,1594860892
516,azad shahr,34.79,48.57,60.37,58,0,2.93,IR,1594860893
517,liverpool,53.41,-2.98,59.0,93,75,11.41,GB,1594860772
518,naze,28.37,129.48,78.8,94,75,24.16,JP,1594860366
519,cabiraoan,18.32,122.09,86.58,67,7,2.44,PH,1594860893
520,zaraza,9.35,-65.32,74.55,96,3,5.26,VE,1594860893
521,chauk,20.88,94.82,81.52,73,62,13.0,MM,1594860893
522,asau,46.43,26.4,80.6,34,100,5.82,RO,1594860403
523,payo,-3.75,103.64,76.59,89,79,0.43,ID,1594860894
524,majene,-3.54,118.97,79.84,83,95,13.29,ID,1594860894
525,pedernales,18.04,-71.74,80.82,74,17,6.51,DO,1594860894
526,hope,33.67,-93.59,91.99,67,36,4.0,US,1594860894
527,kedgwick,47.64,-67.34,53.6,69,0,5.39,CA,1594860894
528,mahanoro,-19.9,48.8,66.51,89,100,8.7,MG,1594860627
529,bedford,52.13,-0.47,59.0,85,100,10.65,GB,1594860894
530,pudem,58.3,52.17,68.68,95,14,4.36,RU,1594860895
531,korla,41.76,86.15,77.0,68,0,13.58,CN,1594860965
532,beloha,-25.17,45.05,59.18,82,0,5.93,MG,1594860895
533,state college,40.79,-77.86,78.01,57,3,6.46,US,1594860769
534,maraa,-1.83,-65.37,75.42,82,0,1.39,BR,1594860895
535,orlik,52.52,99.83,51.4,63,75,3.13,RU,1594860414
536,grindsted,55.75,8.91,53.6,100,0,3.85,DK,1594860896
537,gull lake,50.1,-108.48,68.0,56,75,16.11,CA,1594860896
538,duluth,46.78,-92.11,80.6,44,40,8.05,US,1594860896
539,opuwo,-18.06,13.84,52.77,36,0,18.43,NA,1594860896
540,diffa,13.32,12.61,85.05,50,0,8.61,NE,1594860896
541,coelho neto,-4.26,-43.01,73.31,89,99,3.13,BR,1594860896
542,andros town,24.7,-77.77,86.0,70,40,10.29,BS,1594860896
543,kushmurun,52.45,64.63,71.02,69,0,4.94,KZ,1594860896
544,college,64.86,-147.8,73.4,38,75,10.29,US,1594860400
545,ankazobe,-18.32,47.12,51.8,100,20,3.36,MG,1594860897
546,sheksna,59.21,38.51,58.71,97,100,6.02,RU,1594860897
547,cintalapa,16.7,-93.73,74.25,90,100,3.36,MX,1594860897
548,matara,5.95,80.54,78.46,87,100,7.09,LK,1594860897
549,matay,28.42,30.78,72.18,78,0,14.76,EG,1594860897
550,comodoro rivadavia,-45.87,-67.5,37.4,74,75,3.36,AR,1594860369
551,katsuura,35.13,140.3,71.01,80,100,3.0,JP,1594860898
552,teya,60.38,92.63,57.43,60,99,4.5,RU,1594860898
553,saint-joseph,-21.37,55.62,66.2,63,28,5.82,RE,1594860898
554,klaksvik,62.23,-6.59,51.8,100,100,9.17,FO,1594860968
555,alta floresta,-9.88,-56.09,71.76,41,0,2.64,BR,1594860898
556,cariati,39.49,16.96,73.76,54,6,7.16,IT,1594860898
557,khandwa,21.83,76.33,77.18,90,100,1.99,IN,1594860899
558,narsaq,60.92,-46.05,51.8,66,1,4.7,GL,1594860968
559,husavik,66.04,-17.34,55.4,71,75,9.17,IS,1594860899
560,rocha,-34.48,-54.33,38.89,80,0,4.83,UY,1594860899
561,atocha,-20.93,-66.23,36.63,65,0,5.37,BO,1594860899
562,esil,51.96,66.4,67.73,61,0,7.9,KZ,1594860899
563,itacarambi,-15.1,-44.09,68.85,47,24,4.47,BR,1594860425
564,paamiut,61.99,-49.67,44.38,79,0,18.43,GL,1594860969
565,kochinda,21.73,84.35,78.8,94,40,5.57,IN,1594860900
566,okhotsk,59.38,143.3,60.08,86,91,7.76,RU,1594860426
567,tura,25.52,90.22,76.48,93,96,5.97,IN,1594860365
568,port hawkesbury,45.62,-61.35,53.01,100,90,6.93,CA,1594860900
569,penzance,50.12,-5.54,59.0,93,2,11.41,GB,1594860901
570,pacific grove,36.62,-121.92,72.0,60,1,12.75,US,1594860381
